{
  "locations": [
    {
      "id": "1",
      "name": "Dhaka",
      "city": "Santa Monica",
      "state": "CA",
      "photo": "https://angular.io/assets/images/tutorials/faa/brandon-griggs-wR11KBaB86U-unsplash.jpg",
      "availableUnits": 0,
      "wifi": false,
      "laundry": true
    },
    {
      "id": "2",
      "name": "Kushtia",
      "city": "Khulna",
      "state": "AK",
      "photo": "https://angular.io/assets/images/tutorials/faa/i-do-nothing-but-love-lAyXdl1-Wmc-unsplash.jpg",
      "availableUnits": 1,
      "wifi": true,
      "laundry": true
    },
    {
      "id": "814d",
      "name": "Azimpur",
      "city": "dhaka",
      "state": "bd",
      "photo": "https://angular.io/assets/images/tutorials/faa/brandon-griggs-wR11KBaB86U-unsplash.jpg",
      "availableUnits": "55",
      "wifi": true,
      "laundry": true
    },
    {
      "id": "56e9",
      "name": "Dhanmondi",
      "city": "dhaka",
      "state": "bd",
      "photo": "https://i.postimg.cc/HLg3QZnB/download-1.jpg",
      "availableUnits": "55",
      "wifi": true,
      "laundry": false
    },
    {
      "id": "1a18",
      "name": "Lalbagh",
      "city": "dhaka",
      "state": "bd",
      "photo": "https://i.postimg.cc/BZVghQt8/download.jpg",
      "availableUnits": "111",
      "wifi": true,
      "laundry": true
    },
    {
      "id": "5181",
      "name": "KumarKhali",
      "city": "Kushtia",
      "state": "bd",
      "photo": "https://i.postimg.cc/PqTzLCV7/Kutub.jpg",
      "availableUnits": "111",
      "wifi": true,
      "laundry": true
    },
    {
      "id": "a4f4",
      "name": "Khoksha",
      "city": "Kushtia",
      "state": "bd",
      "photo": "https://i.postimg.cc/HLg3QZnB/download-1.jpg",
      "availableUnits": "4444",
      "wifi": true,
      "laundry": true
    },
    {
      "id": "08de",
      "name": "Kolabagan",
      "city": "Dhaka",
      "state": "bd",
      "photo": "gfiku",
      "availableUnits": "4444",
      "wifi": true,
      "laundry": false
    },
    {
      "id": "6c5b",
      "name": "Comillah",
      "city": "Dhaka",
      "state": "bd",
      "photo": "gfiku",
      "availableUnits": "4",
      "wifi": true,
      "laundry": true
    }
  ],
  "students": [
    {
      "id": "8bf7",
      "name": "Rofik",
      "email": "rofik1787@gmail.com",
      "cellNo": "0121454333",
      "location": {
        "id": "1",
        "name": "Dhaka",
        "city": "Santa Monica",
        "state": "CA",
        "photo": "https://angular.io/assets/images/tutorials/faa/brandon-griggs-wR11KBaB86U-unsplash.jpg",
        "availableUnits": 0,
        "wifi": false,
        "laundry": true
      }
    },
    {
      "id": "61d8",
      "name": "Kutub Uddin",
      "email": "mdkutubuddin1787@gmail.com",
      "cellNo": "01763001787",
      "location": {
        "id": "5181",
        "name": "KumarKhali",
        "city": "Kushtia",
        "state": "bd",
        "photo": "https://i.postimg.cc/PqTzLCV7/Kutub.jpg",
        "availableUnits": "111",
        "wifi": true,
        "laundry": true
      }
    },
    {
      "id": "a06a",
      "name": "sanaullah",
      "email": "rofik1787@gmail.com",
      "cellNo": "01763001787",
      "location": {
        "id": "a4f4",
        "name": "Khoksha",
        "city": "Kushtia",
        "state": "bd",
        "photo": "https://i.postimg.cc/HLg3QZnB/download-1.jpg",
        "availableUnits": "4444",
        "wifi": true,
        "laundry": true
      }
    },
    {
      "id": "6c59",
      "name": "sanaullah",
      "email": "sahab787@gmail.com",
      "cellNo": "0121454333",
      "location": {
        "id": "814d",
        "name": "Azimpur",
        "city": "dhaka",
        "state": "bd",
        "photo": "https://angular.io/assets/images/tutorials/faa/brandon-griggs-wR11KBaB86U-unsplash.jpg",
        "availableUnits": "55",
        "wifi": true,
        "laundry": true
      }
    }
  ]
}